[
  {
    "id": 1,
    "name": "Dunstable Downs",
    "region": "Bedfordshire",
    "lat": 51.86416666666667,
    "lng": -0.5363888888888889
  },
  {
    "id": 2,
    "name": "Sharpenhoe",
    "region": "Bedfordshire",
    "lat": 51.95777777777778,
    "lng": -0.445
  },
  {
    "id": 3,
    "name": "Whipsnade Tree Cathedral",
    "region": "Bedfordshire",
    "lat": 51.85305555555556,
    "lng": -0.5375
  },
  {
    "id": 4,
    "name": "Willington Dovecote and Stables",
    "region": "Bedfordshire",
    "lat": 52.13611111111111,
    "lng": -0.385
  },
  {
    "id": 5,
    "name": "Ashdown House",
    "region": "Berkshire",
    "lat": 51.53611111111111,
    "lng": -1.596388888888889
  },
  {
    "id": 6,
    "name": "Basildon Park",
    "region": "Berkshire",
    "lat": 51.49888888888889,
    "lng": -1.1227777777777779
  },
  {
    "id": 7,
    "name": "Cock Marsh",
    "region": "Berkshire",
    "lat": 51.571111111111115,
    "lng": -0.7269444444444445
  },
  {
    "id": 8,
    "name": "Lardon Chase, the Holies and Lough Down",
    "region": "Berkshire",
    "lat": 51.521388888888886,
    "lng": -1.161111111111111
  },
  {
    "id": 9,
    "name": "Blaise Hamlet",
    "region": "Bristol",
    "lat": 51.507222222222225,
    "lng": -2.6355555555555554
  },
  {
    "id": 10,
    "name": "Westbury College Gatehouse",
    "region": "Bristol",
    "lat": 51.49444444444445,
    "lng": -2.6172222222222223
  },
  {
    "id": 11,
    "name": "Ascott House",
    "region": "Buckinghamshire",
    "lat": 51.89555555555555,
    "lng": -0.706111111111111
  },
  {
    "id": 12,
    "name": "Ashridge Estate",
    "region": "Buckinghamshire",
    "lat": 51.79972222222222,
    "lng": -0.5594444444444445
  },
  {
    "id": 13,
    "name": "Boarstall Duck Decoy",
    "region": "Buckinghamshire",
    "lat": 51.83111111111111,
    "lng": -1.0966666666666667
  },
  {
    "id": 14,
    "name": "Boarstall Tower",
    "region": "Buckinghamshire",
    "lat": 51.82333333333334,
    "lng": -1.0955555555555554
  },
  {
    "id": 15,
    "name": "Bradenham Village",
    "region": "Buckinghamshire",
    "lat": 51.66611111111111,
    "lng": -0.8086111111111112
  },
  {
    "id": 16,
    "name": "Buckingham Chantry Chapel",
    "region": "Buckinghamshire",
    "lat": 52.000277777777775,
    "lng": -0.9880555555555555
  },
  {
    "id": 17,
    "name": "Claydon House",
    "region": "Buckinghamshire",
    "lat": 51.92194444444444,
    "lng": -0.9555555555555555
  },
  {
    "id": 18,
    "name": "Cliveden",
    "region": "Buckinghamshire",
    "lat": 51.558611111111105,
    "lng": -0.6883333333333334
  },
  {
    "id": 19,
    "name": "Coombe Hill",
    "region": "Buckinghamshire",
    "lat": 51.7525,
    "lng": -0.7713888888888889
  },
  {
    "id": 20,
    "name": "Dorneywood Garden",
    "region": "Buckinghamshire",
    "lat": 51.55444444444444,
    "lng": -0.6480555555555555
  },
  {
    "id": 21,
    "name": "Hartwell House",
    "region": "Buckinghamshire",
    "lat": 51.805,
    "lng": -0.8466666666666667
  },
  {
    "id": 22,
    "name": "Hughenden Manor",
    "region": "Buckinghamshire",
    "lat": 51.650277777777774,
    "lng": -0.7566666666666667
  },
  {
    "id": 23,
    "name": "King's Head Inn, Aylesbury",
    "region": "Buckinghamshire",
    "lat": 51.81638888888889,
    "lng": -0.8136111111111112
  },
  {
    "id": 24,
    "name": "Long Crendon Courthouse",
    "region": "Buckinghamshire",
    "lat": 51.77583333333333,
    "lng": -0.99
  },
  {
    "id": 25,
    "name": "Pitstone Windmill",
    "region": "Buckinghamshire",
    "lat": 51.83166666666667,
    "lng": -0.63
  },
  {
    "id": 26,
    "name": "Princes Risborough Manor House",
    "region": "Buckinghamshire",
    "lat": 51.723888888888894,
    "lng": -0.8344444444444444
  },
  {
    "id": 27,
    "name": "Stowe Gardens",
    "region": "Buckinghamshire",
    "lat": 52.03,
    "lng": -1.015
  },
  {
    "id": 28,
    "name": "Waddesdon Manor",
    "region": "Buckinghamshire",
    "lat": 51.842222222222226,
    "lng": -0.9377777777777778
  },
  {
    "id": 29,
    "name": "West Wycombe Park",
    "region": "Buckinghamshire",
    "lat": 51.64138888888889,
    "lng": -0.8027777777777778
  },
  {
    "id": 30,
    "name": "West Wycombe Village",
    "region": "Buckinghamshire",
    "lat": 51.643055555555556,
    "lng": -0.7997222222222222
  },
  {
    "id": 31,
    "name": "Anglesey Abbey, Garden & Lode Mill",
    "region": "Cambridgeshire",
    "lat": 52.23694444444445,
    "lng": 0.24
  },
  {
    "id": 32,
    "name": "Houghton Mill",
    "region": "Cambridgeshire",
    "lat": 52.33083333333334,
    "lng": -0.12083333333333333
  },
  {
    "id": 33,
    "name": "Peckover House & Garden",
    "region": "Cambridgeshire",
    "lat": 52.665,
    "lng": 0.15444444444444444
  },
  {
    "id": 34,
    "name": "Ramsey Abbey Gatehouse",
    "region": "Cambridgeshire",
    "lat": 52.44833333333333,
    "lng": -0.10305555555555557
  },
  {
    "id": 35,
    "name": "Wicken Fen",
    "region": "Cambridgeshire",
    "lat": 52.30694444444444,
    "lng": 0.27805555555555556
  },
  {
    "id": 36,
    "name": "Wimpole Hall",
    "region": "Cambridgeshire",
    "lat": 52.14111111111111,
    "lng": -0.04972222222222222
  },
  {
    "id": 37,
    "name": "Wimpole Home Farm",
    "region": "Cambridgeshire",
    "lat": 52.14472222222222,
    "lng": -0.042499999999999996
  },
  {
    "id": 38,
    "name": "Alderley Edge",
    "region": "Cheshire",
    "lat": 53.30305555555555,
    "lng": -2.236111111111111
  },
  {
    "id": 39,
    "name": "Dunham Massey",
    "region": "Cheshire",
    "lat": 53.382777777777775,
    "lng": -2.4
  },
  {
    "id": 40,
    "name": "Helsby Hill",
    "region": "Cheshire",
    "lat": 53.27305555555555,
    "lng": -2.77
  },
  {
    "id": 41,
    "name": "Hare Hill",
    "region": "Cheshire",
    "lat": 53.2875,
    "lng": -2.1902777777777778
  },
  {
    "id": 42,
    "name": "Little Moreton Hall",
    "region": "Cheshire",
    "lat": 53.12722222222222,
    "lng": -2.2519444444444443
  },
  {
    "id": 43,
    "name": "Lyme Park",
    "region": "Cheshire",
    "lat": 53.338055555555556,
    "lng": -2.054722222222222
  },
  {
    "id": 44,
    "name": "Nether Alderley Mill",
    "region": "Cheshire",
    "lat": 53.282777777777774,
    "lng": -2.236388888888889
  },
  {
    "id": 45,
    "name": "Quarry Bank Mill and Styal Estate",
    "region": "Cheshire",
    "lat": 53.34388888888889,
    "lng": -2.2494444444444444
  },
  {
    "id": 46,
    "name": "Tatton Park",
    "region": "Cheshire",
    "lat": 53.330555555555556,
    "lng": -2.383611111111111
  },
  {
    "id": 47,
    "name": "Antony House",
    "region": "Cornwall",
    "lat": 50.38527777777778,
    "lng": -4.227222222222222
  },
  {
    "id": 48,
    "name": "Boscastle",
    "region": "Cornwall",
    "lat": 50.68388888888889,
    "lng": -4.692777777777778
  },
  {
    "id": 49,
    "name": "Botallack Mine",
    "region": "Cornwall",
    "lat": 50.14,
    "lng": -5.690833333333334
  },
  {
    "id": 50,
    "name": "Cadsonbury",
    "region": "Cornwall",
    "lat": 50.4825,
    "lng": -4.334722222222222
  },
  {
    "id": 51,
    "name": "Carnewas & Bedruthan Steps",
    "region": "Cornwall",
    "lat": 50.488055555555555,
    "lng": -5.034722222222222
  },
  {
    "id": 52,
    "name": "Cornish Mines & Engines",
    "region": "Cornwall",
    "lat": 50.23111111111111,
    "lng": -5.262222222222222
  },
  {
    "id": 53,
    "name": "Cotehele",
    "region": "Cornwall",
    "lat": 50.49583333333334,
    "lng": -4.225833333333333
  },
  {
    "id": 54,
    "name": "Glendurgan Garden",
    "region": "Cornwall",
    "lat": 50.10722222222223,
    "lng": -5.1175
  },
  {
    "id": 55,
    "name": "Godolphin Estate",
    "region": "Cornwall",
    "lat": 50.13805555555555,
    "lng": -5.358333333333333
  },
  {
    "id": 56,
    "name": "Godrevy",
    "region": "Cornwall",
    "lat": 50.23833333333334,
    "lng": -5.393611111111111
  },
  {
    "id": 57,
    "name": "Hawker's Hut",
    "region": "Cornwall",
    "lat": 50.9075,
    "lng": -4.562777777777778
  },
  {
    "id": 58,
    "name": "Kynullce Cove",
    "region": "Cornwall",
    "lat": 49.973888888888894,
    "lng": -5.23
  },
  {
    "id": 59,
    "name": "Lanhydrock House",
    "region": "Cornwall",
    "lat": 50.441111111111105,
    "lng": -4.698055555555555
  },
  {
    "id": 60,
    "name": "Lawrence House",
    "region": "Cornwall",
    "lat": 50.638333333333335,
    "lng": -4.3625
  },
  {
    "id": 61,
    "name": "Levant Mine & Beam Engine",
    "region": "Cornwall",
    "lat": 50.15222222222222,
    "lng": -5.685555555555556
  },
  {
    "id": 62,
    "name": "Penrose, Cornwall",
    "region": "Cornwall",
    "lat": 50.08388888888889,
    "lng": -5.2988888888888885
  },
  {
    "id": 63,
    "name": "Sandymouth Beach",
    "region": "Cornwall",
    "lat": 50.861111111111114,
    "lng": -4.555
  },
  {
    "id": 64,
    "name": "St Anthony Head",
    "region": "Cornwall",
    "lat": 50.14138888888889,
    "lng": -5.015
  },
  {
    "id": 65,
    "name": "St Michael's Mount",
    "region": "Cornwall",
    "lat": 50.11611111111111,
    "lng": -5.477222222222222
  },
  {
    "id": 66,
    "name": "Tintagel Old Post Office",
    "region": "Cornwall",
    "lat": 50.663333333333334,
    "lng": -4.751666666666667
  },
  {
    "id": 67,
    "name": "Trelissick Garden",
    "region": "Cornwall",
    "lat": null,
    "lng": null
  },
  {
    "id": 68,
    "name": "Trengwainton Garden",
    "region": "Cornwall",
    "lat": 50.12861111111111,
    "lng": -5.5744444444444445
  },
  {
    "id": 69,
    "name": "Trerice",
    "region": "Cornwall",
    "lat": 50.38666666666666,
    "lng": -5.038611111111111
  },
  {
    "id": 70,
    "name": "Wheal Coates",
    "region": "Cornwall",
    "lat": 50.303888888888885,
    "lng": -5.231944444444444
  },
  {
    "id": 71,
    "name": "Crook Hall",
    "region": "County Durham",
    "lat": 54.7825,
    "lng": -1.5747222222222221
  },
  {
    "id": 72,
    "name": "Acorn Bank Garden & Watermill",
    "region": "Cumbria",
    "lat": 54.64694444444444,
    "lng": -2.5933333333333333
  },
  {
    "id": 73,
    "name": "Aira Force",
    "region": "Cumbria",
    "lat": 54.57638888888889,
    "lng": -2.930833333333333
  },
  {
    "id": 74,
    "name": "Allan Bank",
    "region": "Cumbria",
    "lat": 54.46,
    "lng": -3.0294444444444446
  },
  {
    "id": 75,
    "name": "Beatrix Potter Gallery",
    "region": "Cumbria",
    "lat": 54.375277777777775,
    "lng": -2.9983333333333335
  },
  {
    "id": 76,
    "name": "Borrowdale",
    "region": "Cumbria",
    "lat": 54.53055555555555,
    "lng": -3.1527777777777777
  },
  {
    "id": 77,
    "name": "Bowder Stone",
    "region": "Cumbria",
    "lat": 54.5375,
    "lng": -3.1530555555555555
  },
  {
    "id": 78,
    "name": "Buttermere and Ennerdale",
    "region": "Cumbria",
    "lat": 54.54,
    "lng": -3.333888888888889
  },
  {
    "id": 79,
    "name": "Cartmel Priory Gatehouse",
    "region": "Cumbria",
    "lat": 54.20111111111111,
    "lng": -2.9547222222222222
  },
  {
    "id": 80,
    "name": "Dalton Castle",
    "region": "Cumbria",
    "lat": 54.155277777777776,
    "lng": -3.1863888888888887
  },
  {
    "id": 81,
    "name": "Derwent Island House",
    "region": "Cumbria",
    "lat": 54.59111111111111,
    "lng": -3.145
  },
  {
    "id": 82,
    "name": "Fell Foot Park",
    "region": "Cumbria",
    "lat": 54.275,
    "lng": -2.9522222222222223
  },
  {
    "id": 83,
    "name": "Gondola",
    "region": "Cumbria",
    "lat": null,
    "lng": null
  },
  {
    "id": 84,
    "name": "Grasmere",
    "region": "Cumbria",
    "lat": 54.44888888888889,
    "lng": -3.0208333333333335
  },
  {
    "id": 85,
    "name": "Hawkshead and Claife",
    "region": "Cumbria",
    "lat": 54.35111111111111,
    "lng": -2.9422222222222225
  },
  {
    "id": 86,
    "name": "Hill Top",
    "region": "Cumbria",
    "lat": 54.35166666666667,
    "lng": -2.970555555555556
  },
  {
    "id": 87,
    "name": "Old Dungeon Ghyll",
    "region": "Cumbria",
    "lat": 54.44916666666666,
    "lng": -3.0733333333333337
  },
  {
    "id": 88,
    "name": "Sandscale Haws",
    "region": "Cumbria",
    "lat": 54.16416666666667,
    "lng": -3.2575
  },
  {
    "id": 89,
    "name": "Sizergh Castle & Garden",
    "region": "Cumbria",
    "lat": 54.28444444444444,
    "lng": -2.7719444444444443
  },
  {
    "id": 90,
    "name": "Stagshaw Garden",
    "region": "Cumbria",
    "lat": 54.41833333333333,
    "lng": -2.9561111111111114
  },
  {
    "id": 91,
    "name": "Tarn Hows",
    "region": "Cumbria",
    "lat": null,
    "lng": null
  },
  {
    "id": 92,
    "name": "Townend",
    "region": "Cumbria",
    "lat": 54.41138888888889,
    "lng": -2.915
  },
  {
    "id": 93,
    "name": "Ullswater",
    "region": "Cumbria",
    "lat": 54.5775,
    "lng": -2.875
  },
  {
    "id": 94,
    "name": "Wasdale, Eskdale and Duddon",
    "region": "Cumbria",
    "lat": 54.425,
    "lng": -3.3488888888888892
  },
  {
    "id": 95,
    "name": "Windermere and Troutbeck",
    "region": "Cumbria",
    "lat": 54.39,
    "lng": -2.915
  },
  {
    "id": 96,
    "name": "Wordsworth House",
    "region": "Cumbria",
    "lat": 54.66361111111111,
    "lng": -3.368055555555556
  },
  {
    "id": 97,
    "name": "Wray Castle",
    "region": "Cumbria",
    "lat": 54.400555555555556,
    "lng": -2.964166666666667
  },
  {
    "id": 98,
    "name": "Calke Abbey",
    "region": "Derbyshire",
    "lat": 52.79972222222222,
    "lng": -1.4558333333333333
  },
  {
    "id": 99,
    "name": "Duffield Castle",
    "region": "Derbyshire",
    "lat": 52.99277777777778,
    "lng": -1.4897222222222224
  },
  {
    "id": 100,
    "name": "Hardwick Hall",
    "region": "Derbyshire",
    "lat": 53.16888888888889,
    "lng": -1.308888888888889
  },
  {
    "id": 101,
    "name": "High Peak Estate",
    "region": "Derbyshire",
    "lat": 53.36611111111111,
    "lng": -1.8161111111111112
  },
  {
    "id": 102,
    "name": "Ilam Park",
    "region": "Derbyshire",
    "lat": 53.055,
    "lng": -1.8069444444444445
  },
  {
    "id": 103,
    "name": "Kedleston Hall",
    "region": "Derbyshire",
    "lat": 52.95916666666667,
    "lng": -1.5358333333333332
  },
  {
    "id": 104,
    "name": "Longshaw Estate",
    "region": "Derbyshire",
    "lat": 53.316111111111105,
    "lng": -1.605
  },
  {
    "id": 105,
    "name": "Stainsby Mill",
    "region": "Derbyshire",
    "lat": 53.18277777777777,
    "lng": -1.3205555555555555
  },
  {
    "id": 106,
    "name": "Sudbury Hall",
    "region": "Derbyshire",
    "lat": 52.88638888888889,
    "lng": -1.7652777777777777
  },
  {
    "id": 107,
    "name": "The Old Manor",
    "region": "Derbyshire",
    "lat": 52.9775,
    "lng": -1.8188888888888888
  },
  {
    "id": 108,
    "name": "White Peak Estate",
    "region": "Derbyshire",
    "lat": 53.055,
    "lng": -1.8069444444444445
  },
  {
    "id": 109,
    "name": "Winster Market House",
    "region": "Derbyshire",
    "lat": 53.141666666666666,
    "lng": -1.6402777777777777
  },
  {
    "id": 110,
    "name": "A La Ronde",
    "region": "Devon",
    "lat": 50.641666666666666,
    "lng": -3.408888888888889
  },
  {
    "id": 111,
    "name": "Arlington Court",
    "region": "Devon",
    "lat": 51.14611111111111,
    "lng": -3.9822222222222226
  },
  {
    "id": 112,
    "name": "Baggy Point",
    "region": "Devon",
    "lat": null,
    "lng": null
  },
  {
    "id": 113,
    "name": "Bolberry Down",
    "region": "Devon",
    "lat": 50.23166666666667,
    "lng": -3.8433333333333333
  },
  {
    "id": 114,
    "name": "Bradley",
    "region": "Devon",
    "lat": 50.52611111111111,
    "lng": -3.6258333333333335
  },
  {
    "id": 115,
    "name": "Branscombe \u2014 The Old Bakery, Manor Mill & Forge",
    "region": "Devon",
    "lat": 50.69222222222222,
    "lng": -3.1377777777777776
  },
  {
    "id": 116,
    "name": "Buckland Abbey",
    "region": "Devon",
    "lat": 50.48111111111111,
    "lng": -4.133611111111112
  },
  {
    "id": 117,
    "name": "Castle Drogo",
    "region": "Devon",
    "lat": 50.69611111111111,
    "lng": -3.8113888888888887
  },
  {
    "id": 118,
    "name": "The Church House",
    "region": "Devon",
    "lat": 50.575833333333335,
    "lng": -3.8119444444444444
  },
  {
    "id": 119,
    "name": "Coleton Fishacre",
    "region": "Devon",
    "lat": 50.34666666666667,
    "lng": -3.5347222222222223
  },
  {
    "id": 120,
    "name": "Compton Castle",
    "region": "Devon",
    "lat": 50.472500000000004,
    "lng": -3.600277777777778
  },
  {
    "id": 121,
    "name": "Finch Foundry",
    "region": "Devon",
    "lat": 50.730555555555554,
    "lng": -3.926111111111111
  },
  {
    "id": 122,
    "name": "Greenway",
    "region": "Devon",
    "lat": 50.38194444444444,
    "lng": -3.5877777777777777
  },
  {
    "id": 123,
    "name": "Heddon Valley Shop",
    "region": "Devon",
    "lat": null,
    "lng": null
  },
  {
    "id": 124,
    "name": "Killerton",
    "region": "Devon",
    "lat": 50.79138888888889,
    "lng": -3.457777777777778
  },
  {
    "id": 125,
    "name": "Knightshayes Court",
    "region": "Devon",
    "lat": 50.92916666666667,
    "lng": -3.479444444444445
  },
  {
    "id": 126,
    "name": "Loughwood Meeting House",
    "region": "Devon",
    "lat": 50.788333333333334,
    "lng": -3.061111111111111
  },
  {
    "id": 127,
    "name": "Lundy",
    "region": "Devon",
    "lat": 51.18,
    "lng": -4.67
  },
  {
    "id": 128,
    "name": "Lydford Gorge",
    "region": "Devon",
    "lat": 50.63305555555556,
    "lng": -4.299722222222222
  },
  {
    "id": 129,
    "name": "Morte Point",
    "region": "Devon",
    "lat": 51.18805555555555,
    "lng": -4.211111111111111
  },
  {
    "id": 130,
    "name": "Overbeck's",
    "region": "Devon",
    "lat": 50.22277777777778,
    "lng": -3.7830555555555554
  },
  {
    "id": 131,
    "name": "Parke",
    "region": "Devon",
    "lat": null,
    "lng": null
  },
  {
    "id": 132,
    "name": "Plymbridge Woods",
    "region": "Devon",
    "lat": 50.40888888888889,
    "lng": -4.0808333333333335
  },
  {
    "id": 133,
    "name": "Saltram",
    "region": "Devon",
    "lat": 50.38166666666667,
    "lng": -4.0825
  },
  {
    "id": 134,
    "name": "Shute Barton",
    "region": "Devon",
    "lat": 50.771388888888886,
    "lng": -3.0613888888888887
  },
  {
    "id": 135,
    "name": "Watersmeet House",
    "region": "Devon",
    "lat": 51.223333333333336,
    "lng": -3.799444444444444
  },
  {
    "id": 136,
    "name": "Badbury Rings",
    "region": "Dorset",
    "lat": 50.82638888888889,
    "lng": -2.051388888888889
  },
  {
    "id": 137,
    "name": "Ballard Down",
    "region": "Dorset",
    "lat": 50.63055555555555,
    "lng": -1.9661111111111111
  },
  {
    "id": 138,
    "name": "Brownsea Island",
    "region": "Dorset",
    "lat": 50.69166666666666,
    "lng": -1.9722222222222223
  },
  {
    "id": 139,
    "name": "Cerne Giant",
    "region": "Dorset",
    "lat": 50.81361111111111,
    "lng": -2.4747222222222223
  },
  {
    "id": 140,
    "name": "Clouds Hill",
    "region": "Dorset",
    "lat": 50.7175,
    "lng": -2.2511111111111113
  },
  {
    "id": 141,
    "name": "Corfe Castle",
    "region": "Dorset",
    "lat": 50.64,
    "lng": -2.0580555555555553
  },
  {
    "id": 142,
    "name": "Eggardon Hill",
    "region": "Dorset",
    "lat": 50.75,
    "lng": -2.6505555555555556
  },
  {
    "id": 143,
    "name": "Hambledon Hill",
    "region": "Dorset",
    "lat": 50.9125,
    "lng": -2.2219444444444445
  },
  {
    "id": 144,
    "name": "Hardy Monument",
    "region": "Dorset",
    "lat": null,
    "lng": null
  },
  {
    "id": 145,
    "name": "Hardy's Cottage",
    "region": "Dorset",
    "lat": 50.731388888888894,
    "lng": -2.386388888888889
  },
  {
    "id": 146,
    "name": "Hod Hill",
    "region": "Dorset",
    "lat": 50.894999999999996,
    "lng": -2.205277777777778
  },
  {
    "id": 147,
    "name": "Kingston Lacy",
    "region": "Dorset",
    "lat": null,
    "lng": null
  },
  {
    "id": 148,
    "name": "Lambert's Castle",
    "region": "Dorset",
    "lat": 50.78722222222222,
    "lng": -2.895
  },
  {
    "id": 149,
    "name": "Lewesdon Hill",
    "region": "Dorset",
    "lat": 50.80777777777777,
    "lng": -2.799722222222222
  },
  {
    "id": 150,
    "name": "Max Gate",
    "region": "Dorset",
    "lat": 50.70805555555556,
    "lng": -2.42
  },
  {
    "id": 151,
    "name": "Old Harry Rocks",
    "region": "Dorset",
    "lat": 50.64222222222222,
    "lng": -1.923611111111111
  },
  {
    "id": 152,
    "name": "Pilsdon Pen",
    "region": "Dorset",
    "lat": 50.80638888888888,
    "lng": -2.8344444444444448
  },
  {
    "id": 153,
    "name": "Portland House",
    "region": "Dorset",
    "lat": 50.60055555555556,
    "lng": -2.4536111111111114
  },
  {
    "id": 154,
    "name": "Spyway",
    "region": "Dorset",
    "lat": 50.602222222222224,
    "lng": -2.020277777777778
  },
  {
    "id": 155,
    "name": "Studland Beach",
    "region": "Dorset",
    "lat": 50.64222222222222,
    "lng": -1.9505555555555556
  },
  {
    "id": 156,
    "name": "White Mill",
    "region": "Dorset",
    "lat": 50.805,
    "lng": -2.061111111111111
  },
  {
    "id": 157,
    "name": "Bourne Mill",
    "region": "Essex",
    "lat": 51.87722222222222,
    "lng": 0.9125
  },
  {
    "id": 158,
    "name": "Coggeshall Grange Barn",
    "region": "Essex",
    "lat": 51.867777777777775,
    "lng": 0.6841666666666667
  },
  {
    "id": 159,
    "name": "Danbury Commons and Blakes Wood",
    "region": "Essex",
    "lat": 51.712500000000006,
    "lng": 0.5727777777777777
  },
  {
    "id": 160,
    "name": "Hatfield Forest",
    "region": "Essex",
    "lat": 51.85777777777778,
    "lng": 0.22916666666666669
  },
  {
    "id": 161,
    "name": "Northey Island",
    "region": "Essex",
    "lat": null,
    "lng": null
  },
  {
    "id": 162,
    "name": "Paycocke's",
    "region": "Essex",
    "lat": 51.87027777777778,
    "lng": 0.6827777777777777
  },
  {
    "id": 163,
    "name": "Ray Island",
    "region": "Essex",
    "lat": 51.801111111111105,
    "lng": 0.915
  },
  {
    "id": 164,
    "name": "Rayleigh Mount",
    "region": "Essex",
    "lat": 51.588055555555556,
    "lng": 0.6044444444444445
  },
  {
    "id": 165,
    "name": "Ashleworth Tithe Barn",
    "region": "Gloucestershire",
    "lat": 51.92527777777777,
    "lng": -2.265
  },
  {
    "id": 166,
    "name": "Bibury",
    "region": "Gloucestershire",
    "lat": 51.75833333333333,
    "lng": -1.8325
  },
  {
    "id": 167,
    "name": "Chedworth Roman Villa",
    "region": "Gloucestershire",
    "lat": 51.819722222222225,
    "lng": -1.9244444444444444
  },
  {
    "id": 168,
    "name": "Dyrham Park",
    "region": "Gloucestershire",
    "lat": 51.480000000000004,
    "lng": -2.3733333333333335
  },
  {
    "id": 169,
    "name": "Hailes Abbey",
    "region": "Gloucestershire",
    "lat": 51.968333333333334,
    "lng": -1.9280555555555554
  },
  {
    "id": 170,
    "name": "Haresfield Beacon",
    "region": "Gloucestershire",
    "lat": 51.778055555555554,
    "lng": -2.2630555555555554
  },
  {
    "id": 171,
    "name": "Hidcote Manor Garden",
    "region": "Gloucestershire",
    "lat": 52.08444444444444,
    "lng": -1.7461111111111112
  },
  {
    "id": 172,
    "name": "Horton Court",
    "region": "Gloucestershire",
    "lat": 51.56361111111111,
    "lng": -2.338611111111111
  },
  {
    "id": 173,
    "name": "Lodge Park and Sherborne Estate",
    "region": "Gloucestershire",
    "lat": 51.80888888888889,
    "lng": -1.7902777777777776
  },
  {
    "id": 174,
    "name": "May Hill",
    "region": "Gloucestershire",
    "lat": 51.89083333333333,
    "lng": -2.443888888888889
  },
  {
    "id": 175,
    "name": "Minchinhampton Common",
    "region": "Gloucestershire",
    "lat": 51.70805555555556,
    "lng": -2.2105555555555556
  },
  {
    "id": 176,
    "name": "Newark Park",
    "region": "Gloucestershire",
    "lat": 51.63638888888889,
    "lng": -2.3177777777777777
  },
  {
    "id": 177,
    "name": "Snowshill Manor",
    "region": "Gloucestershire",
    "lat": 52.00277777777778,
    "lng": -1.8605555555555557
  },
  {
    "id": 178,
    "name": "Westbury Court Garden",
    "region": "Gloucestershire",
    "lat": 51.82277777777778,
    "lng": -2.4099999999999997
  },
  {
    "id": 179,
    "name": "Woodchester Park",
    "region": "Gloucestershire",
    "lat": null,
    "lng": null
  },
  {
    "id": 180,
    "name": "Castlefield Viaduct",
    "region": "Greater Manchester",
    "lat": 53.475,
    "lng": -2.2544444444444443
  },
  {
    "id": 181,
    "name": "Dunham Massey",
    "region": "Greater Manchester",
    "lat": 53.382777777777775,
    "lng": -2.4
  },
  {
    "id": 182,
    "name": "Hinton Ampner",
    "region": "Hampshire",
    "lat": 51.04361111111111,
    "lng": -1.1508333333333332
  },
  {
    "id": 183,
    "name": "Ludshott Common and Waggoners Wells",
    "region": "Hampshire",
    "lat": 51.10333333333333,
    "lng": null
  },
  {
    "id": 184,
    "name": "Mottisfont Abbey",
    "region": "Hampshire",
    "lat": 51.04138888888889,
    "lng": -1.535
  },
  {
    "id": 185,
    "name": "Sandham Memorial Chapel",
    "region": "Hampshire",
    "lat": 51.344722222222224,
    "lng": -1.336111111111111
  },
  {
    "id": 186,
    "name": "Selborne Common",
    "region": "Hampshire",
    "lat": 51.1,
    "lng": -0.95
  },
  {
    "id": 187,
    "name": "Stockbridge Down",
    "region": "Hampshire",
    "lat": 51.11194444444445,
    "lng": -1.46
  },
  {
    "id": 188,
    "name": "Stockbridge Marsh",
    "region": "Hampshire",
    "lat": 51.10194444444445,
    "lng": -1.498888888888889
  },
  {
    "id": 189,
    "name": "The Vyne",
    "region": "Hampshire",
    "lat": 51.30694444444444,
    "lng": -1.088611111111111
  },
  {
    "id": 190,
    "name": "West Green House",
    "region": "Hampshire",
    "lat": 51.301111111111105,
    "lng": -0.9319444444444444
  },
  {
    "id": 191,
    "name": "Winchester City Mill",
    "region": "Hampshire",
    "lat": 51.06111111111111,
    "lng": -1.307777777777778
  },
  {
    "id": 192,
    "name": "Berrington Hall",
    "region": "Herefordshire",
    "lat": 52.26888888888889,
    "lng": -2.721388888888889
  },
  {
    "id": 193,
    "name": "Brockhampton Estate",
    "region": "Herefordshire",
    "lat": null,
    "lng": null
  },
  {
    "id": 194,
    "name": "Croft Castle",
    "region": "Herefordshire",
    "lat": 52.28472222222222,
    "lng": -2.8091666666666666
  },
  {
    "id": 195,
    "name": "The Weir Garden",
    "region": "Herefordshire",
    "lat": 52.07277777777778,
    "lng": -2.8255555555555554
  },
  {
    "id": 196,
    "name": "Ashridge Estate",
    "region": "Hertfordshire",
    "lat": 51.79972222222222,
    "lng": -0.5594444444444445
  },
  {
    "id": 197,
    "name": "Shaw's Corner",
    "region": "Hertfordshire",
    "lat": 51.83444444444444,
    "lng": -0.2672222222222222
  },
  {
    "id": 198,
    "name": "Bembridge Fort",
    "region": "Isle of Wight",
    "lat": 50.67166666666667,
    "lng": -1.1175
  },
  {
    "id": 199,
    "name": "Bembridge Windmill",
    "region": "Isle of Wight",
    "lat": 50.68333333333333,
    "lng": -1.0958333333333332
  },
  {
    "id": 200,
    "name": "Borthwood Copse",
    "region": "Isle of Wight",
    "lat": 50.655833333333334,
    "lng": -1.1952777777777779
  },
  {
    "id": 201,
    "name": "Chillerton Down",
    "region": "Isle of Wight",
    "lat": 50.651666666666664,
    "lng": -1.323611111111111
  },
  {
    "id": 202,
    "name": "Mottistone Manor",
    "region": "Isle of Wight",
    "lat": 50.652499999999996,
    "lng": -1.4266666666666667
  },
  {
    "id": 203,
    "name": "The Needles",
    "region": "Isle of Wight",
    "lat": 50.66277777777778,
    "lng": -1.5894444444444447
  },
  {
    "id": 204,
    "name": "The Needles Batteries",
    "region": "Isle of Wight",
    "lat": 50.66222222222222,
    "lng": -1.5838888888888891
  },
  {
    "id": 205,
    "name": "Newtown Old Town Hall",
    "region": "Isle of Wight",
    "lat": 50.713055555555556,
    "lng": -1.401111111111111
  },
  {
    "id": 206,
    "name": "St. Catherine's Oratory",
    "region": "Isle of Wight",
    "lat": 50.59305555555556,
    "lng": -1.3038888888888889
  },
  {
    "id": 207,
    "name": "Rosetta Cottage",
    "region": "Isle of Wight",
    "lat": 50.76722222222222,
    "lng": -1.3111111111111111
  },
  {
    "id": 208,
    "name": "Chartwell",
    "region": "Kent",
    "lat": 51.244166666666665,
    "lng": 0.08333333333333333
  },
  {
    "id": 209,
    "name": "Chiddingstone",
    "region": "Kent",
    "lat": 51.18611111111111,
    "lng": 0.14833333333333332
  },
  {
    "id": 210,
    "name": "Cobham Wood and Mausoleum",
    "region": "Kent",
    "lat": 51.38916666666667,
    "lng": 0.4338888888888889
  },
  {
    "id": 211,
    "name": "Coldrum Long Barrow",
    "region": "Kent",
    "lat": 51.32166666666667,
    "lng": 0.37277777777777776
  },
  {
    "id": 212,
    "name": "Emmetts Garden",
    "region": "Kent",
    "lat": 51.25138888888889,
    "lng": 0.11916666666666667
  },
  {
    "id": 213,
    "name": "Ightham Mote",
    "region": "Kent",
    "lat": 51.25861111111111,
    "lng": 0.2697222222222222
  },
  {
    "id": 214,
    "name": "Knole",
    "region": "Kent",
    "lat": 51.26611111111111,
    "lng": 0.20611111111111113
  },
  {
    "id": 215,
    "name": "Old Soar Manor",
    "region": "Kent",
    "lat": 51.26222222222222,
    "lng": 0.3197222222222222
  },
  {
    "id": 216,
    "name": "Oldbury Camp",
    "region": "Kent",
    "lat": null,
    "lng": null
  },
  {
    "id": 217,
    "name": "One Tree Hill and Bitchet Common",
    "region": "Kent",
    "lat": 51.25805555555556,
    "lng": 0.2438888888888889
  },
  {
    "id": 218,
    "name": "Owletts",
    "region": "Kent",
    "lat": 51.393055555555556,
    "lng": 0.3919444444444445
  },
  {
    "id": 219,
    "name": "Quebec House",
    "region": "Kent",
    "lat": 51.26722222222222,
    "lng": 0.07583333333333334
  },
  {
    "id": 220,
    "name": "Scotney Castle",
    "region": "Kent",
    "lat": 51.09277777777778,
    "lng": 0.4083333333333334
  },
  {
    "id": 221,
    "name": "Sissinghurst Castle Garden",
    "region": "Kent",
    "lat": 51.115833333333335,
    "lng": 0.5813888888888888
  },
  {
    "id": 222,
    "name": "Smallhythe Place",
    "region": "Kent",
    "lat": 51.03805555555555,
    "lng": 0.6991666666666667
  },
  {
    "id": 223,
    "name": "South Foreland Lighthouse",
    "region": "Kent",
    "lat": null,
    "lng": null
  },
  {
    "id": 224,
    "name": "St. John's Jerusalem",
    "region": "Kent",
    "lat": 51.40888888888889,
    "lng": 0.23750000000000002
  },
  {
    "id": 225,
    "name": "Stoneacre",
    "region": "Kent",
    "lat": 51.25222222222222,
    "lng": 0.5777777777777777
  },
  {
    "id": 226,
    "name": "The White Cliffs of Dover",
    "region": "Kent",
    "lat": 51.10777777777778,
    "lng": 1.2786111111111111
  },
  {
    "id": 227,
    "name": "Toys Hill",
    "region": "Kent",
    "lat": 51.24194444444444,
    "lng": 0.10388888888888889
  },
  {
    "id": 228,
    "name": "Gawthorpe Hall",
    "region": "Lancashire",
    "lat": 53.80277777777778,
    "lng": -2.294722222222222
  },
  {
    "id": 229,
    "name": "Rufford Old Hall",
    "region": "Lancashire",
    "lat": 53.63777777777778,
    "lng": -2.813611111111111
  },
  {
    "id": 230,
    "name": "Staunton Harold Church",
    "region": "Leicestershire",
    "lat": 52.78388888888889,
    "lng": -1.44
  },
  {
    "id": 231,
    "name": "Stoneywell",
    "region": "Leicestershire",
    "lat": 52.70138888888889,
    "lng": -1.2647222222222223
  },
  {
    "id": 232,
    "name": "Ulverscroft Nature Reserve",
    "region": "Leicestershire",
    "lat": 52.706944444444446,
    "lng": -1.276111111111111
  },
  {
    "id": 233,
    "name": "Belton House",
    "region": "Lincolnshire",
    "lat": 52.94305555555555,
    "lng": -0.6177777777777778
  },
  {
    "id": 234,
    "name": "Grantham House",
    "region": "Lincolnshire",
    "lat": 52.915,
    "lng": -0.64
  },
  {
    "id": 235,
    "name": "Gunby Hall",
    "region": "Lincolnshire",
    "lat": 53.178888888888885,
    "lng": 0.1938888888888889
  },
  {
    "id": 236,
    "name": "Sandilands",
    "region": "Lincolnshire",
    "lat": 53.29972222222222,
    "lng": 0.2847222222222222
  },
  {
    "id": 237,
    "name": "Tattershall Castle",
    "region": "Lincolnshire",
    "lat": null,
    "lng": null
  },
  {
    "id": 238,
    "name": "Woolsthorpe Manor",
    "region": "Lincolnshire",
    "lat": 52.80916666666666,
    "lng": -0.6305555555555555
  },
  {
    "id": 239,
    "name": "2 Willow Road",
    "region": "Greater London",
    "lat": null,
    "lng": null
  },
  {
    "id": 240,
    "name": "575 Wandsworth Road",
    "region": "Greater London",
    "lat": 51.469722222222224,
    "lng": -0.14055555555555554
  },
  {
    "id": 241,
    "name": "Blewcoat School",
    "region": "Greater London",
    "lat": null,
    "lng": null
  },
  {
    "id": 242,
    "name": "Carlyle's House",
    "region": "Greater London",
    "lat": null,
    "lng": -0.16999999999999998
  },
  {
    "id": 243,
    "name": "Eastbury Manor House",
    "region": "Greater London",
    "lat": null,
    "lng": 0.09944444444444445
  },
  {
    "id": 244,
    "name": "East Sheen Common",
    "region": "Greater London",
    "lat": 51.456944444444446,
    "lng": -0.27805555555555556
  },
  {
    "id": 245,
    "name": "Fenton House",
    "region": "Greater London",
    "lat": null,
    "lng": null
  },
  {
    "id": 246,
    "name": "George Inn",
    "region": "Greater London",
    "lat": 51.50416666666667,
    "lng": -0.09
  },
  {
    "id": 247,
    "name": "Ham House",
    "region": "Greater London",
    "lat": 51.44416666666666,
    "lng": -0.31416666666666665
  },
  {
    "id": 248,
    "name": "Lindsey House",
    "region": "Greater London",
    "lat": 51.48222222222223,
    "lng": -0.17444444444444443
  },
  {
    "id": 249,
    "name": "Morden Hall Park",
    "region": "Greater London",
    "lat": 51.401111111111106,
    "lng": -0.1875
  },
  {
    "id": 250,
    "name": "Osterley Park",
    "region": "Greater London",
    "lat": null,
    "lng": null
  },
  {
    "id": 251,
    "name": "Petts Wood & Hawkwood",
    "region": "Greater London",
    "lat": 51.38861111111111,
    "lng": 0.07611111111111112
  },
  {
    "id": 252,
    "name": "Rainham Hall",
    "region": "Greater London",
    "lat": null,
    "lng": null
  },
  {
    "id": 253,
    "name": "Red House",
    "region": "Greater London",
    "lat": 51.455555555555556,
    "lng": 0.13027777777777777
  },
  {
    "id": 254,
    "name": "Roman Baths, Strand Lane",
    "region": "Greater London",
    "lat": 51.51166666666666,
    "lng": -0.11555555555555556
  },
  {
    "id": 255,
    "name": "Selsdon Wood",
    "region": "Greater London",
    "lat": 51.33833333333334,
    "lng": -0.04638888888888889
  },
  {
    "id": 256,
    "name": "Sutton House",
    "region": "Greater London",
    "lat": 51.54833333333333,
    "lng": -0.05027777777777778
  },
  {
    "id": 257,
    "name": "Formby",
    "region": "Merseyside",
    "lat": 53.558611111111105,
    "lng": -3.066666666666667
  },
  {
    "id": 258,
    "name": "Speke Hall",
    "region": "Merseyside",
    "lat": 53.336666666666666,
    "lng": -2.8741666666666665
  },
  {
    "id": 259,
    "name": "20 Forthlin Road",
    "region": "Merseyside",
    "lat": 53.36972222222222,
    "lng": -2.897777777777778
  },
  {
    "id": 260,
    "name": "251 Menlove Avenue",
    "region": "Merseyside",
    "lat": 53.37722222222222,
    "lng": -2.881388888888889
  },
  {
    "id": 261,
    "name": "59 Rodney Street",
    "region": "Merseyside",
    "lat": null,
    "lng": null
  },
  {
    "id": 262,
    "name": "Blakeney Point",
    "region": "Norfolk",
    "lat": 52.977222222222224,
    "lng": 0.9777777777777777
  },
  {
    "id": 263,
    "name": "Blickling Hall",
    "region": "Norfolk",
    "lat": 52.81166666666666,
    "lng": 1.2316666666666667
  },
  {
    "id": 264,
    "name": "Brancaster",
    "region": "Norfolk",
    "lat": 52.96194444444445,
    "lng": 0.6411111111111111
  },
  {
    "id": 265,
    "name": "Darrow Wood",
    "region": "Norfolk",
    "lat": 52.455555555555556,
    "lng": 1.3308333333333333
  },
  {
    "id": 266,
    "name": "Felbrigg Hall",
    "region": "Norfolk",
    "lat": 52.9075,
    "lng": 1.2591666666666668
  },
  {
    "id": 267,
    "name": "Horsey Windpump",
    "region": "Norfolk",
    "lat": 52.74111111111111,
    "lng": null
  },
  {
    "id": 268,
    "name": "Oxburgh Hall",
    "region": "Norfolk",
    "lat": 52.58111111111111,
    "lng": 0.5702777777777778
  },
  {
    "id": 269,
    "name": "Sheringham Park",
    "region": "Norfolk",
    "lat": 52.93,
    "lng": 1.175
  },
  {
    "id": 270,
    "name": "St. George's Guildhall",
    "region": "Norfolk",
    "lat": 52.75555555555555,
    "lng": 0.39333333333333337
  },
  {
    "id": 271,
    "name": "Canons Ashby House",
    "region": "Northamptonshire",
    "lat": 52.151111111111106,
    "lng": -1.1580555555555554
  },
  {
    "id": 272,
    "name": "Lyveden New Bield",
    "region": "Northamptonshire",
    "lat": 52.456944444444446,
    "lng": -0.5533333333333333
  },
  {
    "id": 273,
    "name": "Allen Banks & Staward Gorge",
    "region": "Northumberland",
    "lat": 54.96194444444445,
    "lng": -2.316111111111111
  },
  {
    "id": 274,
    "name": "Cherryburn",
    "region": "Northumberland",
    "lat": 54.956944444444446,
    "lng": -1.883888888888889
  },
  {
    "id": 275,
    "name": "Cragside",
    "region": "Northumberland",
    "lat": 55.31361111111111,
    "lng": -1.8852777777777778
  },
  {
    "id": 276,
    "name": "Dunstanburgh Castle",
    "region": "Northumberland",
    "lat": 55.49111111111111,
    "lng": -1.5933333333333335
  },
  {
    "id": 277,
    "name": "Farne Islands",
    "region": "Northumberland",
    "lat": 55.621944444444445,
    "lng": -1.6280555555555556
  },
  {
    "id": 278,
    "name": "George Stephenson's Birthplace",
    "region": "Northumberland",
    "lat": 54.97916666666667,
    "lng": -1.8047222222222223
  },
  {
    "id": 279,
    "name": "Hadrian's Wall",
    "region": "Northumberland",
    "lat": null,
    "lng": null
  },
  {
    "id": 280,
    "name": "Lindisfarne Castle",
    "region": "Northumberland",
    "lat": 55.66888888888889,
    "lng": -1.785
  },
  {
    "id": 281,
    "name": "Northumberland Coast",
    "region": "Northumberland",
    "lat": 55.58833333333334,
    "lng": -1.6641666666666666
  },
  {
    "id": 282,
    "name": "Ros Castle",
    "region": "Northumberland",
    "lat": 55.521388888888886,
    "lng": -1.8733333333333333
  },
  {
    "id": 283,
    "name": "St Cuthbert's Cave",
    "region": "Northumberland",
    "lat": 55.57277777777778,
    "lng": -1.9958333333333333
  },
  {
    "id": 284,
    "name": "Seaton Delaval Hall",
    "region": "Northumberland",
    "lat": 55.08222222222223,
    "lng": -1.496388888888889
  },
  {
    "id": 285,
    "name": "Wallington Hall",
    "region": "Northumberland",
    "lat": 55.151944444444446,
    "lng": -1.9569444444444444
  },
  {
    "id": 286,
    "name": "Clumber Park",
    "region": "Nottinghamshire",
    "lat": 53.27305555555555,
    "lng": -1.0638888888888889
  },
  {
    "id": 287,
    "name": "Mr. Straw's House",
    "region": "Nottinghamshire",
    "lat": 53.315,
    "lng": -1.1152777777777778
  },
  {
    "id": 288,
    "name": "The Workhouse, Southwell",
    "region": "Nottinghamshire",
    "lat": 53.08111111111111,
    "lng": -0.9391666666666667
  },
  {
    "id": 289,
    "name": "Buscot Park",
    "region": "Oxfordshire",
    "lat": 51.66972222222222,
    "lng": -1.6530555555555555
  },
  {
    "id": 290,
    "name": "Chastleton House",
    "region": "Oxfordshire",
    "lat": 51.95888888888889,
    "lng": -1.652222222222222
  },
  {
    "id": 291,
    "name": "Great Coxwell Barn",
    "region": "Oxfordshire",
    "lat": 51.644444444444446,
    "lng": -1.6127777777777779
  },
  {
    "id": 292,
    "name": "Greys Court",
    "region": "Oxfordshire",
    "lat": 51.54472222222222,
    "lng": -0.9558333333333333
  },
  {
    "id": 293,
    "name": "Nuffield Place",
    "region": "Oxfordshire",
    "lat": 51.585,
    "lng": -1.0216666666666665
  },
  {
    "id": 294,
    "name": "Priory Cottages",
    "region": "Oxfordshire",
    "lat": 51.61888888888889,
    "lng": -1.3283333333333334
  },
  {
    "id": 295,
    "name": "Uffington White Horse",
    "region": "Oxfordshire",
    "lat": 51.5775,
    "lng": -1.5666666666666667
  },
  {
    "id": 296,
    "name": "Attingham Park",
    "region": "Shropshire",
    "lat": null,
    "lng": null
  },
  {
    "id": 297,
    "name": "Benthall Hall",
    "region": "Shropshire",
    "lat": 52.620555555555555,
    "lng": -2.506666666666667
  },
  {
    "id": 298,
    "name": "Carding Mill Valley",
    "region": "Shropshire",
    "lat": 52.538888888888884,
    "lng": -2.8080555555555553
  },
  {
    "id": 299,
    "name": "Cronkhill",
    "region": "Shropshire",
    "lat": 52.67027777777778,
    "lng": -2.687777777777778
  },
  {
    "id": 300,
    "name": "Dudmaston Hall",
    "region": "Shropshire",
    "lat": 52.49666666666667,
    "lng": -2.375277777777778
  },
  {
    "id": 301,
    "name": "Morville Hall",
    "region": "Shropshire",
    "lat": 52.54277777777778,
    "lng": -2.4897222222222224
  },
  {
    "id": 302,
    "name": "Sunnycroft",
    "region": "Shropshire",
    "lat": 52.695277777777775,
    "lng": -2.5166666666666666
  },
  {
    "id": 303,
    "name": "Town Walls Tower",
    "region": "Shropshire",
    "lat": 52.70527777777778,
    "lng": -2.7558333333333334
  },
  {
    "id": 304,
    "name": "Wilderhope Manor",
    "region": "Shropshire",
    "lat": 52.53138888888889,
    "lng": -2.6727777777777777
  },
  {
    "id": 305,
    "name": "Barrington Court",
    "region": "Somerset",
    "lat": 50.961111111111116,
    "lng": -2.858611111111111
  },
  {
    "id": 306,
    "name": "Bath Assembly Rooms",
    "region": "Somerset",
    "lat": 51.38611111111111,
    "lng": -2.3622222222222224
  },
  {
    "id": 307,
    "name": "Brean Down",
    "region": "Somerset",
    "lat": 51.32555555555556,
    "lng": -3.028888888888889
  },
  {
    "id": 308,
    "name": "Brean Down Fort",
    "region": "Somerset",
    "lat": null,
    "lng": null
  },
  {
    "id": 309,
    "name": "Burrow Mump",
    "region": "Somerset",
    "lat": 51.068333333333335,
    "lng": -2.9205555555555556
  },
  {
    "id": 310,
    "name": "Cadbury Camp",
    "region": "Somerset",
    "lat": 51.448611111111106,
    "lng": -2.7869444444444444
  },
  {
    "id": 311,
    "name": "Cheddar Gorge",
    "region": "Somerset",
    "lat": 51.2825,
    "lng": -2.7655555555555558
  },
  {
    "id": 312,
    "name": "Clevedon Court",
    "region": "Somerset",
    "lat": 51.44027777777777,
    "lng": -2.832222222222222
  },
  {
    "id": 313,
    "name": "Coleridge Cottage",
    "region": "Somerset",
    "lat": 51.15222222222222,
    "lng": -3.1577777777777776
  },
  {
    "id": 314,
    "name": "Crook Peak to Shute Shelve Hill",
    "region": "Somerset",
    "lat": 51.29527777777778,
    "lng": -2.881388888888889
  },
  {
    "id": 315,
    "name": "Dolebury Warren",
    "region": "Somerset",
    "lat": 51.3275,
    "lng": -2.783611111111111
  },
  {
    "id": 316,
    "name": "Dunster Castle",
    "region": "Somerset",
    "lat": 51.18083333333333,
    "lng": -3.4450000000000003
  },
  {
    "id": 317,
    "name": "Dunster Working Watermill",
    "region": "Somerset",
    "lat": 51.180277777777775,
    "lng": -3.4450000000000003
  },
  {
    "id": 318,
    "name": "Ebbor Gorge",
    "region": "Somerset",
    "lat": 51.23388888888889,
    "lng": -2.6819444444444445
  },
  {
    "id": 319,
    "name": "Fyne Court",
    "region": "Somerset",
    "lat": 51.080555555555556,
    "lng": -3.1144444444444446
  },
  {
    "id": 320,
    "name": "Glastonbury Tor",
    "region": "Somerset",
    "lat": 51.144444444444446,
    "lng": -2.6986111111111115
  },
  {
    "id": 321,
    "name": "Holnicote Estate",
    "region": "Somerset",
    "lat": 51.20583333333334,
    "lng": -3.5619444444444444
  },
  {
    "id": 322,
    "name": "King Alfred's Tower",
    "region": "Somerset",
    "lat": 51.11472222222223,
    "lng": -2.365
  },
  {
    "id": 323,
    "name": "King John's Hunting Lodge",
    "region": "Somerset",
    "lat": 51.28722222222222,
    "lng": -2.8175
  },
  {
    "id": 324,
    "name": "Leigh Woods",
    "region": "Somerset",
    "lat": 51.463055555555556,
    "lng": -2.6391666666666667
  },
  {
    "id": 325,
    "name": "Lytes Cary Manor",
    "region": "Somerset",
    "lat": 51.03583333333333,
    "lng": -2.667777777777778
  },
  {
    "id": 326,
    "name": "Montacute House",
    "region": "Somerset",
    "lat": 50.9525,
    "lng": -2.716111111111111
  },
  {
    "id": 327,
    "name": "The Priest's House, Muchelney",
    "region": "Somerset",
    "lat": 51.02111111111111,
    "lng": -2.8152777777777778
  },
  {
    "id": 328,
    "name": "Prior Park Landscape Garden",
    "region": "Somerset",
    "lat": 51.367222222222225,
    "lng": -2.343611111111111
  },
  {
    "id": 329,
    "name": "Sand Point",
    "region": "Somerset",
    "lat": 51.38972222222222,
    "lng": -2.968888888888889
  },
  {
    "id": 330,
    "name": "Solsbury Hill",
    "region": "Somerset",
    "lat": 51.41,
    "lng": -2.334166666666667
  },
  {
    "id": 331,
    "name": "Stembridge Tower Mill",
    "region": "Somerset",
    "lat": 51.07138888888889,
    "lng": -2.810833333333333
  },
  {
    "id": 332,
    "name": "Stoke sub Hamdon Priory",
    "region": "Somerset",
    "lat": 50.95444444444445,
    "lng": -2.748888888888889
  },
  {
    "id": 333,
    "name": "Tintinhull Garden",
    "region": "Somerset",
    "lat": 50.974444444444444,
    "lng": -2.707222222222222
  },
  {
    "id": 334,
    "name": "Treasurer's House",
    "region": "Somerset",
    "lat": 50.96944444444445,
    "lng": -2.7725
  },
  {
    "id": 335,
    "name": "Tyntesfield",
    "region": "Somerset",
    "lat": 51.440555555555555,
    "lng": -2.711666666666667
  },
  {
    "id": 336,
    "name": "Walton and Ivythorn Hills",
    "region": "Somerset",
    "lat": 51.108333333333334,
    "lng": -2.751388888888889
  },
  {
    "id": 337,
    "name": "Wellington Monument, Somerset",
    "region": "Somerset",
    "lat": 50.948055555555555,
    "lng": -3.229166666666667
  },
  {
    "id": 338,
    "name": "West Pennard Court Barn",
    "region": "Somerset",
    "lat": 51.130833333333335,
    "lng": -2.648888888888889
  },
  {
    "id": 339,
    "name": "Yarn Market, Dunster",
    "region": "Somerset",
    "lat": 51.18444444444444,
    "lng": -3.444166666666667
  },
  {
    "id": 340,
    "name": "Biddulph Grange",
    "region": "Staffordshire",
    "lat": 53.12972222222222,
    "lng": -2.1622222222222223
  },
  {
    "id": 341,
    "name": "Downs Banks",
    "region": "Staffordshire",
    "lat": 52.93,
    "lng": -2.1480555555555556
  },
  {
    "id": 342,
    "name": "Kinver Edge",
    "region": "Staffordshire",
    "lat": 52.45,
    "lng": -2.242777777777778
  },
  {
    "id": 343,
    "name": "Letocetum",
    "region": "Staffordshire",
    "lat": 52.65694444444444,
    "lng": -1.856388888888889
  },
  {
    "id": 344,
    "name": "Mow Cop Castle",
    "region": "Staffordshire",
    "lat": 53.113055555555555,
    "lng": -2.214166666666667
  },
  {
    "id": 345,
    "name": "Moseley Old Hall",
    "region": "Staffordshire",
    "lat": 52.6375,
    "lng": -2.1025
  },
  {
    "id": 346,
    "name": "South Peak Estate",
    "region": "Staffordshire",
    "lat": 53.055,
    "lng": -1.8069444444444445
  },
  {
    "id": 347,
    "name": "Shugborough Hall",
    "region": "Staffordshire",
    "lat": 52.8,
    "lng": -2.0130555555555554
  },
  {
    "id": 348,
    "name": "Bridge Cottage",
    "region": "Suffolk",
    "lat": 51.95944444444445,
    "lng": 1.0186111111111111
  },
  {
    "id": 349,
    "name": "Dunwich Heath",
    "region": "Suffolk",
    "lat": 52.25694444444444,
    "lng": 1.6211111111111112
  },
  {
    "id": 350,
    "name": "Ickworth House",
    "region": "Suffolk",
    "lat": 52.22027777777778,
    "lng": 0.6569444444444444
  },
  {
    "id": 351,
    "name": "Lavenham Guildhall",
    "region": "Suffolk",
    "lat": 52.10888888888889,
    "lng": 0.7966666666666666
  },
  {
    "id": 352,
    "name": "Melford Hall",
    "region": "Suffolk",
    "lat": 52.0825,
    "lng": 0.7227777777777777
  },
  {
    "id": 353,
    "name": "Orford Ness",
    "region": "Suffolk",
    "lat": 52.081388888888895,
    "lng": 1.5586111111111112
  },
  {
    "id": 354,
    "name": "Theatre Royal, Bury St Edmunds",
    "region": "Suffolk",
    "lat": 52.24055555555556,
    "lng": 0.7172222222222222
  },
  {
    "id": 355,
    "name": "Sutton Hoo",
    "region": "Suffolk",
    "lat": 52.08972222222222,
    "lng": 1.3388888888888888
  },
  {
    "id": 356,
    "name": "Thorington Hall",
    "region": "Suffolk",
    "lat": 51.97888888888889,
    "lng": 0.9280555555555555
  },
  {
    "id": 357,
    "name": "Bookham Commons",
    "region": "Surrey",
    "lat": 51.296388888888885,
    "lng": -0.3836111111111111
  },
  {
    "id": 358,
    "name": "Box Hill",
    "region": "Surrey",
    "lat": 51.255,
    "lng": -0.3086111111111111
  },
  {
    "id": 359,
    "name": "Clandon House",
    "region": "Surrey",
    "lat": 51.25055555555556,
    "lng": -0.5083333333333333
  },
  {
    "id": 360,
    "name": "Claremont Landscape Garden",
    "region": "Surrey",
    "lat": 51.35777777777778,
    "lng": -0.37805555555555553
  },
  {
    "id": 361,
    "name": "Dapdune Wharf",
    "region": "Surrey",
    "lat": 51.24305555555556,
    "lng": -0.5791666666666666
  },
  {
    "id": 362,
    "name": "Hatchlands Park",
    "region": "Surrey",
    "lat": 51.257222222222225,
    "lng": -0.47194444444444444
  },
  {
    "id": 363,
    "name": "Hindhead Common",
    "region": "Surrey",
    "lat": 51.11694444444444,
    "lng": -0.7288888888888889
  },
  {
    "id": 364,
    "name": "The Homewood",
    "region": "Surrey",
    "lat": 51.35,
    "lng": -0.38861111111111113
  },
  {
    "id": 365,
    "name": "Hydon's Ball",
    "region": "Surrey",
    "lat": 51.146388888888886,
    "lng": -0.6047222222222222
  },
  {
    "id": 366,
    "name": "Leith Hill",
    "region": "Surrey",
    "lat": 51.17583333333333,
    "lng": -0.3697222222222222
  },
  {
    "id": 367,
    "name": "Oakhurst Cottage",
    "region": "Surrey",
    "lat": 51.132777777777775,
    "lng": -0.6238888888888889
  },
  {
    "id": 368,
    "name": "Polesden Lacey",
    "region": "Surrey",
    "lat": 51.2575,
    "lng": -0.37361111111111106
  },
  {
    "id": 369,
    "name": "Gatton Park",
    "region": "Surrey",
    "lat": 51.25888888888889,
    "lng": -0.1725
  },
  {
    "id": 370,
    "name": "River Wey and Godalming Navigations",
    "region": "Surrey",
    "lat": null,
    "lng": null
  },
  {
    "id": 371,
    "name": "Runnymede",
    "region": "Surrey",
    "lat": 51.44444444444444,
    "lng": -0.5652777777777778
  },
  {
    "id": 372,
    "name": "Shalford Mill",
    "region": "Surrey",
    "lat": 51.219166666666666,
    "lng": -0.5680555555555555
  },
  {
    "id": 373,
    "name": "Winkworth Arboretum",
    "region": "Surrey",
    "lat": 51.16083333333333,
    "lng": -0.5816666666666667
  },
  {
    "id": 374,
    "name": "Witley Centre",
    "region": "Surrey",
    "lat": 51.153888888888886,
    "lng": -0.6749999999999999
  },
  {
    "id": 375,
    "name": "Alfriston Clergy House",
    "region": "East Sussex",
    "lat": null,
    "lng": 0.15805555555555556
  },
  {
    "id": 376,
    "name": "Bateman's",
    "region": "East Sussex",
    "lat": 50.98916666666667,
    "lng": 0.37916666666666665
  },
  {
    "id": 377,
    "name": "Birling Gap",
    "region": "East Sussex",
    "lat": null,
    "lng": null
  },
  {
    "id": 378,
    "name": "Bodiam Castle",
    "region": "East Sussex",
    "lat": 51.00222222222222,
    "lng": 0.5436111111111112
  },
  {
    "id": 379,
    "name": "Lamb House",
    "region": "East Sussex",
    "lat": 50.95,
    "lng": 0.7327777777777778
  },
  {
    "id": 380,
    "name": "Monk's House",
    "region": "East Sussex",
    "lat": 50.83861111111111,
    "lng": 0.01638888888888889
  },
  {
    "id": 381,
    "name": "Sheffield Park and Garden",
    "region": "East Sussex",
    "lat": null,
    "lng": null
  },
  {
    "id": 382,
    "name": "Litlington White Horse",
    "region": "East Sussex",
    "lat": 50.78805555555555,
    "lng": 0.14194444444444443
  },
  {
    "id": 383,
    "name": "Cissbury Ring",
    "region": "West Sussex",
    "lat": 50.85805555555556,
    "lng": -0.375
  },
  {
    "id": 384,
    "name": "Devil's Dyke",
    "region": "West Sussex",
    "lat": 50.885,
    "lng": -0.20500000000000002
  },
  {
    "id": 385,
    "name": "Harting Down",
    "region": "West Sussex",
    "lat": null,
    "lng": null
  },
  {
    "id": 386,
    "name": "Lavington Common",
    "region": "West Sussex",
    "lat": 50.961111111111116,
    "lng": -0.65
  },
  {
    "id": 387,
    "name": "Nymans",
    "region": "West Sussex",
    "lat": 51.05,
    "lng": -0.19694444444444442
  },
  {
    "id": 388,
    "name": "Petworth House",
    "region": "West Sussex",
    "lat": 50.988055555555555,
    "lng": -0.611111111111111
  },
  {
    "id": 389,
    "name": "Standen",
    "region": "West Sussex",
    "lat": 51.10305555555556,
    "lng": -0.016944444444444443
  },
  {
    "id": 390,
    "name": "Swan Barn Farm",
    "region": "West Sussex",
    "lat": 51.09,
    "lng": -0.7119444444444444
  },
  {
    "id": 391,
    "name": "Uppark",
    "region": "West Sussex",
    "lat": 50.95305555555556,
    "lng": -0.8916666666666666
  },
  {
    "id": 392,
    "name": "Wakehurst Place Garden",
    "region": "West Sussex",
    "lat": 51.06722222222223,
    "lng": -0.08888888888888888
  },
  {
    "id": 393,
    "name": "Woolbeding Gardens",
    "region": "West Sussex",
    "lat": 50.99722222222222,
    "lng": -0.7569444444444444
  },
  {
    "id": 394,
    "name": "Ormesby Hall",
    "region": "Teesside",
    "lat": 54.54333333333333,
    "lng": -1.1830555555555555
  },
  {
    "id": 395,
    "name": "Gibside",
    "region": "Tyne and Wear",
    "lat": 54.92444444444444,
    "lng": -1.7266666666666668
  },
  {
    "id": 396,
    "name": "Penshaw Monument",
    "region": "Tyne and Wear",
    "lat": 54.88305555555556,
    "lng": -1.4808333333333334
  },
  {
    "id": 397,
    "name": "Souter Lighthouse",
    "region": "Tyne and Wear",
    "lat": 54.970555555555556,
    "lng": -1.3641666666666667
  },
  {
    "id": 398,
    "name": "Washington Old Hall",
    "region": "Tyne and Wear",
    "lat": null,
    "lng": null
  },
  {
    "id": 399,
    "name": "Baddesley Clinton",
    "region": "Warwickshire",
    "lat": 52.34027777777778,
    "lng": -1.7094444444444443
  },
  {
    "id": 400,
    "name": "Charlecote Park",
    "region": "Warwickshire",
    "lat": 52.20527777777778,
    "lng": -1.6166666666666667
  },
  {
    "id": 401,
    "name": "Coughton Court",
    "region": "Warwickshire",
    "lat": 52.243611111111115,
    "lng": -1.8800000000000001
  },
  {
    "id": 402,
    "name": "Farnborough Hall",
    "region": "Warwickshire",
    "lat": 52.1375,
    "lng": -1.3730555555555557
  },
  {
    "id": 403,
    "name": "Kinwarton Dovecote",
    "region": "Warwickshire",
    "lat": null,
    "lng": null
  },
  {
    "id": 404,
    "name": "Packwood House",
    "region": "Warwickshire",
    "lat": 52.347500000000004,
    "lng": -1.746388888888889
  },
  {
    "id": 405,
    "name": "Upton House",
    "region": "Warwickshire",
    "lat": 52.11194444444445,
    "lng": -1.4597222222222221
  },
  {
    "id": 406,
    "name": "Birmingham Back to Backs",
    "region": "West Midlands",
    "lat": 52.47416666666667,
    "lng": -1.8972222222222221
  },
  {
    "id": 407,
    "name": "Roundhouse, Birmingham",
    "region": "West Midlands",
    "lat": 52.47916666666667,
    "lng": -1.9183333333333332
  },
  {
    "id": 408,
    "name": "Wightwick Manor",
    "region": "West Midlands",
    "lat": 52.583333333333336,
    "lng": -2.194444444444444
  },
  {
    "id": 409,
    "name": "Avebury",
    "region": "Wiltshire",
    "lat": 51.42861111111111,
    "lng": -1.8541666666666667
  },
  {
    "id": 410,
    "name": "Avebury Manor & Garden",
    "region": "Wiltshire",
    "lat": 51.428888888888885,
    "lng": -1.8591666666666669
  },
  {
    "id": 411,
    "name": "Calstone and Cherhill Downs",
    "region": "Wiltshire",
    "lat": 51.42166666666667,
    "lng": -1.933888888888889
  },
  {
    "id": 412,
    "name": "Cley Hill",
    "region": "Wiltshire",
    "lat": 51.20305555555556,
    "lng": -2.2333333333333334
  },
  {
    "id": 413,
    "name": "The Courts Garden",
    "region": "Wiltshire",
    "lat": 51.355000000000004,
    "lng": -2.2008333333333336
  },
  {
    "id": 414,
    "name": "Figsbury Ring",
    "region": "Wiltshire",
    "lat": 51.10305555555556,
    "lng": -1.7308333333333334
  },
  {
    "id": 415,
    "name": "Great Chalfield Manor",
    "region": "Wiltshire",
    "lat": 51.3675,
    "lng": -2.2022222222222223
  },
  {
    "id": 416,
    "name": "Heelis",
    "region": "Wiltshire",
    "lat": 51.56361111111111,
    "lng": -1.797222222222222
  },
  {
    "id": 417,
    "name": "Lacock Abbey",
    "region": "Wiltshire",
    "lat": 51.414722222222224,
    "lng": -2.1172222222222223
  },
  {
    "id": 418,
    "name": "Mompesson House",
    "region": "Wiltshire",
    "lat": 51.06666666666667,
    "lng": -1.7983333333333331
  },
  {
    "id": 419,
    "name": "Pepperbox Hill",
    "region": "Wiltshire",
    "lat": 51.022777777777776,
    "lng": -1.6983333333333333
  },
  {
    "id": 420,
    "name": "Philipps House",
    "region": "Wiltshire",
    "lat": 51.085,
    "lng": -1.983888888888889
  },
  {
    "id": 421,
    "name": "Piggledene",
    "region": "Wiltshire",
    "lat": 51.41888888888889,
    "lng": -1.798611111111111
  },
  {
    "id": 422,
    "name": "Stonehenge Landscape",
    "region": "Wiltshire",
    "lat": 51.178888888888885,
    "lng": -1.8280555555555555
  },
  {
    "id": 423,
    "name": "Stourhead",
    "region": "Wiltshire",
    "lat": 51.10805555555556,
    "lng": -2.3191666666666664
  },
  {
    "id": 424,
    "name": "The Coombes",
    "region": "Wiltshire",
    "lat": 51.54194444444444,
    "lng": -1.6724999999999999
  },
  {
    "id": 425,
    "name": "Westwood Manor",
    "region": "Wiltshire",
    "lat": 51.330000000000005,
    "lng": -2.271111111111111
  },
  {
    "id": 426,
    "name": "White Barrow",
    "region": "Wiltshire",
    "lat": 51.22083333333334,
    "lng": -1.9541666666666666
  },
  {
    "id": 427,
    "name": "Bredon Barn",
    "region": "Worcestershire",
    "lat": 52.03,
    "lng": -2.1169444444444445
  },
  {
    "id": 428,
    "name": "Croome Park",
    "region": "Worcestershire",
    "lat": 52.099722222222226,
    "lng": -2.1694444444444443
  },
  {
    "id": 429,
    "name": "The Firs (Elgar Birthplace Museum)",
    "region": "Worcestershire",
    "lat": null,
    "lng": null
  },
  {
    "id": 430,
    "name": "The Fleece Inn",
    "region": "Worcestershire",
    "lat": 52.092222222222226,
    "lng": -1.8655555555555556
  },
  {
    "id": 431,
    "name": "The Greyfriars",
    "region": "Worcestershire",
    "lat": 52.190555555555555,
    "lng": -2.218888888888889
  },
  {
    "id": 432,
    "name": "Hanbury Hall",
    "region": "Worcestershire",
    "lat": 52.27166666666667,
    "lng": -2.0833333333333335
  },
  {
    "id": 433,
    "name": "Hawford Dovecote",
    "region": "Worcestershire",
    "lat": 52.24444444444445,
    "lng": -2.226388888888889
  },
  {
    "id": 434,
    "name": "Knowles Mill",
    "region": "Worcestershire",
    "lat": 52.38666666666666,
    "lng": -2.3508333333333336
  },
  {
    "id": 435,
    "name": "Middle Littleton Tythe Barn",
    "region": "Worcestershire",
    "lat": 52.121944444444445,
    "lng": -1.8847222222222222
  },
  {
    "id": 436,
    "name": "Rosedene, Chartist cottage",
    "region": "Worcestershire",
    "lat": 52.35611111111111,
    "lng": -2.104166666666667
  },
  {
    "id": 437,
    "name": "Wichenford Dovecote",
    "region": "Worcestershire",
    "lat": 52.243611111111115,
    "lng": -2.3119444444444444
  },
  {
    "id": 438,
    "name": "Beningbrough Hall",
    "region": "North Yorkshire",
    "lat": 54.020833333333336,
    "lng": -1.2105555555555556
  },
  {
    "id": 439,
    "name": "Braithwaite Hall",
    "region": "North Yorkshire",
    "lat": 54.2675,
    "lng": -1.821388888888889
  },
  {
    "id": 440,
    "name": "Brimham Rocks",
    "region": "North Yorkshire",
    "lat": 54.08083333333334,
    "lng": -1.6855555555555555
  },
  {
    "id": 441,
    "name": "Fountains Abbey",
    "region": "North Yorkshire",
    "lat": 54.109722222222224,
    "lng": -1.581388888888889
  },
  {
    "id": 442,
    "name": "Goddards House and Garden",
    "region": "North Yorkshire",
    "lat": 53.94027777777777,
    "lng": -1.1041666666666667
  },
  {
    "id": 443,
    "name": "Malham Tarn Estate",
    "region": "North Yorkshire",
    "lat": 54.095,
    "lng": -2.165
  },
  {
    "id": 444,
    "name": "Middlethorpe Hall",
    "region": "North Yorkshire",
    "lat": 53.93055555555555,
    "lng": -1.0899999999999999
  },
  {
    "id": 445,
    "name": "Moulton Hall",
    "region": "North Yorkshire",
    "lat": 54.42666666666666,
    "lng": -1.6397222222222223
  },
  {
    "id": 446,
    "name": "Mount Grace Priory",
    "region": "North Yorkshire",
    "lat": 54.38,
    "lng": -1.3111111111111111
  },
  {
    "id": 447,
    "name": "Nunnington Hall",
    "region": "North Yorkshire",
    "lat": 54.206944444444446,
    "lng": -0.9736111111111111
  },
  {
    "id": 448,
    "name": "Ormesby Hall",
    "region": "North Yorkshire",
    "lat": 54.54333333333333,
    "lng": -1.1830555555555555
  },
  {
    "id": 449,
    "name": "Rievaulx Terrace & Temples",
    "region": "North Yorkshire",
    "lat": 54.25833333333333,
    "lng": -1.1108333333333333
  },
  {
    "id": 450,
    "name": "Robin Hood's Bay",
    "region": "North Yorkshire",
    "lat": 54.433611111111105,
    "lng": -0.5344444444444444
  },
  {
    "id": 451,
    "name": "Roseberry Topping",
    "region": "North Yorkshire",
    "lat": 54.50555555555555,
    "lng": -1.1072222222222223
  },
  {
    "id": 452,
    "name": "Treasurer's House",
    "region": "North Yorkshire",
    "lat": 53.963055555555556,
    "lng": -1.0808333333333333
  },
  {
    "id": 453,
    "name": "Upper Wharfedale",
    "region": "North Yorkshire",
    "lat": 53.88333333333333,
    "lng": -1.45
  },
  {
    "id": 454,
    "name": "Yorkshire Coast",
    "region": "North Yorkshire",
    "lat": 54.15138888888889,
    "lng": -0.17388888888888887
  },
  {
    "id": 455,
    "name": "Wentworth Castle Gardens",
    "region": "South Yorkshire",
    "lat": 53.524166666666666,
    "lng": -1.5188888888888887
  },
  {
    "id": 456,
    "name": "East Riddlesden Hall",
    "region": "West Yorkshire",
    "lat": 53.874722222222225,
    "lng": -1.8811111111111112
  },
  {
    "id": 457,
    "name": "Hardcastle Crags",
    "region": "West Yorkshire",
    "lat": 53.765,
    "lng": -2.0425
  },
  {
    "id": 458,
    "name": "Longshaw Estate",
    "region": "West Yorkshire",
    "lat": 53.316111111111105,
    "lng": -1.605
  },
  {
    "id": 459,
    "name": "Marsden Moor Estate",
    "region": "West Yorkshire",
    "lat": 53.60111111111111,
    "lng": -1.96
  },
  {
    "id": 460,
    "name": "Nostell Priory",
    "region": "West Yorkshire",
    "lat": 53.65277777777778,
    "lng": -1.39
  }
]